<?xml version="1.0"?>
<!DOCTYPE flight_plan SYSTEM "../flight_plan.dtd">
<flight_plan alt="152" ground_alt="147" lat0="43 33 50.83" lon0="1 28 52.61" max_dist_from_home="100" name="Rotorcraft Basic (Enac)" security_height="2" geofence_sector="Flight_Area" geofence_max_alt="190">
  <header>
#include "autopilot.h"
  </header>
  <waypoints>
    <waypoint name="HOME" lat="43.5634041" lon="1.4844647"/>
    <waypoint name="CLIMB" lat="43.5635598" lon="1.4843974"/>
    <waypoint name="STDBY" lat="43.5634474" lon="1.4846557"/>
    <waypoint name="p1" lat="43.5635089" lon="1.4841319"/>
    <waypoint name="p2" lat="43.5631129" lon="1.4846057"/>
    <waypoint name="p3" lat="43.5632461" lon="1.4849035"/>
    <waypoint name="p4" lat="43.5636970" lon="1.4843990"/>
    <waypoint name="FLY1" lat="43.5631544" lon="1.4854025"/>
    <waypoint name="FLY2" lat="43.5626711" lon="1.4844765"/>
    <waypoint name="FLY3" lat="43.5636723" lon="1.4834606"/>
    <waypoint name="FLY4" lat="43.5641236" lon="1.4843951"/>
    <waypoint name="KILL1" lat="43.5646806" lon="1.4844331"/>
    <waypoint name="KILL2" lat="43.5633355" lon="1.4860597"/>
    <waypoint name="KILL3" lat="43.5624871" lon="1.4844170"/>
    <waypoint name="KILL4" lat="43.5638711" lon="1.4829605"/>
    <waypoint name="TD" lat="43.5633846" lon="1.4845766"/>
  </waypoints>
  <sectors>
    <sector color="orange" name="Flight_Area">
      <corner name="FLY1"/>
      <corner name="FLY2"/>
      <corner name="FLY3"/>
      <corner name="FLY4"/>
    </sector>
    <sector color="red" name="Kill">
      <corner name="KILL1"/>
      <corner name="KILL2"/>
      <corner name="KILL3"/>
      <corner name="KILL4"/>
    </sector>
  </sectors>
  <blocks>
    <block name="Wait GPS">
      <call_once fun="NavKillThrottle()"/>
      <while cond="!GpsFixValid()"/>
    </block>
    <block name="Geo init">
      <while cond="LessThan(NavBlockTime(), 10)"/>
      <call_once fun="NavSetGroundReferenceHere()"/>
      <!--<call_once fun="NavSetAltitudeReferenceHere()"/>-->
    </block>
    <block name="Holding point">
      <call_once fun="NavKillThrottle()"/>
      <attitude pitch="0" roll="0" throttle="0" vmode="throttle" until="FALSE"/>
    </block>
    <block name="Start Engine">
      <call_once fun="NavResurrect()"/>
      <attitude pitch="0" roll="0" throttle="0" vmode="throttle" until="FALSE"/>
    </block>
    <block name="Takeoff" strip_button="Takeoff" strip_icon="takeoff.png">
      <exception cond="stateGetPositionEnu_f() @DEREF z @GT 2.0" deroute="Standby"/>
      <call_once fun="NavSetWaypointHere(WP_CLIMB)"/>
      <call_once fun="NavResurrect()"/>
      <stay vmode="climb" climb="nav.climb_vspeed" wp="CLIMB"/>
    </block>
    <block name="Standby" strip_button="Standby" strip_icon="home.png">
      <stay wp="STDBY"/>
    </block>
    <block name="stay_p1">
      <stay wp="p1"/>
    </block>
    <block name="stay_p2">
      <stay wp="p2"/>
    </block>
    <block name="line_p1_p2">
      <go from="p1" hmode="route" wp="p2"/>
      <stay wp="p2" until="stage_time @GT 10"/>
      <go from="p2" hmode="route" wp="p1"/>
      <deroute block="stay_p1"/>
    </block>
    <block name="route">
      <go wp="p1"/>
      <go from="p1" hmode="route" wp="p2"/>
      <go from="p2" hmode="route" wp="p3"/>
      <go from="p3" hmode="route" wp="p4"/>
      <go from="p4" hmode="route" wp="p1"/>
      <deroute block="stay_p1"/>
    </block>
    <block name="land here" strip_button="Land Here" strip_icon="land-right.png">
      <call_once fun="NavSetWaypointHere(WP_TD)"/>
    </block>
    <block name="land">
      <go wp="TD"/>
    </block>
    <block name="flare">
      <!-- <exception cond="NavDetectGround()" deroute="Holding point"/>
      <exception cond="!nav_is_in_flight()" deroute="landed"/>
      <call_once fun="NavStartDetectGround()"/> -->
      <stay climb="nav.descend_vspeed" vmode="climb" wp="TD"/>
    </block>
    <block name="landed">
      <attitude pitch="0" roll="0" throttle="0" vmode="throttle" until="FALSE"/>
    </block>
  </blocks>
</flight_plan>
