<!DOCTYPE flight_plan SYSTEM "../flight_plan.dtd">
<flight_plan alt="70" ground_alt="0" lat0="53.3988083" lon0="5.2487480" max_dist_from_home="2000" name="Rotating Wing Terschelling" security_height="2">
  <header/>
  <waypoints>
    <waypoint name="HOME" x="0" y="0"/>
    <waypoint name="CLIMB" x="300." y="70"/>
    <waypoint name="trans" x="300." y="100."/>
    <waypoint name="decel" x="300." y="110."/>
    <waypoint name="begin_trans" x="300." y="90."/>
    <waypoint name="end_trans" x="300." y="120."/>
    <waypoint name="STDBY" x="-60" y="5"/>
    <waypoint name="p1" x="-65" y="80"/>
    <waypoint name="p2" x="-120" y="480"/>
    <waypoint name="p3" x="-400" y="400"/>
    <waypoint name="p4" x="-150" y="70"/>
    <waypoint name="circ" x="160" y="25"/>
    <waypoint name="TD" x="10" y="-1"/>
    <waypoint name="APP" x="-200" y="150"/>
    <waypoint name="FOLLOW" x="300" y="80"/>
    <!-- Terschelling -->
    <waypoint lat="53.403590" lon="5.214102" name="C1"/>
    <waypoint lat="53.399129" lon="5.219031" name="C2"/>
    <waypoint lat="53.391752" lon="5.234877" name="C3"/>
    <waypoint lat="53.399786" lon="5.273960" name="C4"/>
    <waypoint lat="53.416200" lon="5.265441" name="C5"/>
    <waypoint lat="53.424575" lon="5.252654" name="C6"/>
    <waypoint lat="53.422246" lon="5.233265" name="C7"/>
    <waypoint lat="53.418859" lon="5.216361" name="C8"/>
    <waypoint lat="53.411762" lon="5.208801" name="C9"/>
  </waypoints>
  <sectors>
    <sector color="red" name="Flyzone">
      <corner name="C1"/>
      <corner name="C2"/>
      <corner name="C3"/>
      <corner name="C4"/>
      <corner name="C5"/>
      <corner name="C6"/>
      <corner name="C7"/>
      <corner name="C8"/>
      <corner name="C9"/>
    </sector>
  </sectors>
  <includes>
    <include name="RW" procedure="rotating_wing_include.xml"/>
  </includes>
  <blocks>
    <block name="Dummy"/>
  </blocks>
</flight_plan>
