<!DOCTYPE flight_plan SYSTEM "flight_plan.dtd">

<flight_plan alt="1" ground_alt="0" lat0="51.990634" lon0="4.376789" max_dist_from_home="20" name="Rotorcraft Optitrack (Delft)" security_height="0.3">
  <header>
#include "autopilot.h"
#include "obstacle_avoidance/guidance_OA.h"
</header>
  <waypoints>
    <waypoint name="HOME" x="0.0" y="0.0"/>
    <waypoint name="CLIMB" x="1.2" y="-0.6"/>
    <waypoint name="STDBY" x="-0.7" y="-0.8"/>
    <waypoint name="TD" x="0.8" y="-1.7"/>
    <waypoint lat="51.990630" lon="4.376823" name="p1"/>
    <waypoint lat="51.990614" lon="4.376779" name="p2"/>
    <waypoint lat="51.990636" lon="4.376759" name="p3"/>
    <waypoint lat="51.990651" lon="4.376805" name="p4"/>
    <waypoint lat="51.9906213" lon="4.3768628" name="FA1"/>
    <waypoint lat="51.9905874" lon="4.3767766" name="FA2"/>
    <waypoint lat="51.9906409" lon="4.3767226" name="FA3"/>
    <waypoint lat="51.9906737" lon="4.3768074" name="FA4"/>
  </waypoints>
  <sectors>
    <sector color="red" name="Flight_Area">
      <corner name="FA4"/>
      <corner name="FA3"/>
      <corner name="FA2"/>
      <corner name="FA1"/>
    </sector>
  </sectors>
  <blocks>
<!--
    <block name="Geo init">
      <while cond="LessThan(NavBlockTime(), 10)"/>
      <call fun="NavSetGroundReferenceHere()"/>
    </block>-->
    <block key="f" name="PingPong" >
	 <attitude alt="2.0" vmode="alt" roll="ref_roll" pitch="ref_pitch"/>
    </block>
  </blocks>
</flight_plan>
